"TIMESTAMP","RECORD","Processor Power","RTC Power","Primary Power","Secondary Power","Sensor Power","Total System Current","Sensor Current","Internal Pressure","Internal Temperature","Internal Humidity","Cell Signal Strength","Cell Status","mV Output","Aquatic PAR","mV Output","Terrestrial PAR","Wind Direction","Wind Direction Correction","Minimum Wind Speed","Wind Speed","Max Wind Speed","Air Temperature","Relative Humidity","Barometric Pressure","Interval Rain","Rain Duration","Rain Intensity","Hail Count","Hail Duration","Hail Intensity","Heating Temp","Heating Voltage","Power Supply","Temperature","Conductivity","Pressure","ODO","Salinity","Sound Speed","Specific Conductivity","UTC Time","Lattitude","Longitude","Altitude","Heading","Relative Barometric Pressure","Air Temperature","Relative Humidity","Dewpoint","Wind Direction","Magnetic Wind Direction","Wind Speed","Roll","Pitch"
"TS","RN","V","V","V","V","V","mA","mA","mBar","C","%","dB","","mV","umol/s/m^2","mV","umol/s/m^2","Degree","Degree","m/s","m/s","m/s","C","%","hPa","Mm","Sec","mm/h","Hit","Sec","Hit/cm^2-h","C","V","V","C","S/m","dbar","mg/L","PPT","m/s","S/m","hhmmss","Deg","Deg","m","Deg","inHg","C","%","C","Deg","Deg","m/s","Deg","Deg"
"","","","","","","","","","","","","","","","","","","","","","","","","","","","","","","","","","","","","","","","","","","","","","","","","","","","","","","",""
"2018-03-15 15:50:00",-9,3.36,2.99,13.97,0.11,11.94,141.55,116.16,1021.23,34.903,16.36,-93.0,0.0,3.992,670.1,8.571,2070.1,115.0,128.1,0.10,2.60,6.80,28.400,54.4,1018.20,0.00,0.0,0.00,0.0,0.0,0.00,0.00,0.0,17.00,38.951,0.00006,0.00900,7.492,0.016,1527.13,0.00005,154931.7,17.0250950,-61.8732109,3.100,13.10,30.08,28.600,-999,-999,111.0,125.6,2.80,-0.40,0.00
"2018-03-15 16:00:00",-9,3.36,3.00,13.96,0.12,11.96,146.29,116.89,1021.95,35.017,16.65,-93.0,0.0,3.455,580.9,8.574,2069.8,126.0,139.1,0.20,2.70,8.80,28.700,53.3,1018.10,0.00,0.0,0.00,0.0,0.0,0.00,0.00,0.0,17.00,39.327,0.00007,-0.01300,7.395,0.016,1527.77,0.00006,155931.7,17.0250721,-61.8731842,14.900,13.10,30.12,28.800,-999,-999,136.0,150.6,2.70,-0.40,0.00
"2018-03-15 16:10:00",-9,3.36,3.00,13.99,0.13,11.97,145.17,118.41,1022.58,35.148,16.89,-93.0,0.0,3.221,540.1,8.538,2061.9,129.0,142.2,0.30,3.30,8.60,28.700,48.3,1017.90,0.00,0.0,0.00,0.0,0.0,0.00,0.00,0.0,17.00,36.303,0.00008,-0.01900,7.289,0.015,1522.35,0.00007,160931.7,17.0250874,-61.8732033,15.200,13.20,30.11,28.600,-999,-999,116.8,131.4,3.80,-0.40,0.10
"2018-03-15 16:20:00",-9,3.36,3.00,13.95,0.10,11.95,139.89,118.51,1023.05,35.059,17.23,-93.0,0.0,3.261,548.9,8.535,2060.5,126.0,139.2,0.20,3.10,9.60,28.800,52.9,1017.80,0.00,0.0,0.00,0.0,0.0,0.00,0.00,0.0,17.00,33.980,0.00007,-0.00800,7.250,0.015,1517.80,0.00006,161931.7,17.0251007,-61.8731842,14.500,13.20,30.12,28.900,-999,-999,118.7,133.3,1.70,-0.40,0.10
"2018-03-15 16:30:00",-9,3.36,3.00,13.95,0.11,11.94,145.41,117.29,1023.47,35.038,17.47,-91.0,0.0,3.304,555.8,8.546,2064.5,127.0,140.2,0.20,2.90,9.30,28.600,53.2,1017.60,0.00,0.0,0.00,0.0,0.0,0.00,0.00,0.0,17.00,33.114,0.00006,0.00600,7.255,0.014,1516.01,0.00005,162931.8,17.0251350,-61.8732033,15.700,13.20,30.11,28.700,-999,-999,117.5,132.1,2.80,-0.40,0.10
"2018-03-15 16:40:00",-9,3.36,3.01,13.93,0.08,11.97,144.09,118.60,1023.89,35.005,17.68,-93.0,0.0,3.482,585.1,8.492,2049.8,113.0,126.2,1.10,5.00,9.80,28.600,51.6,1017.40,0.00,0.0,0.00,0.0,0.0,0.00,0.00,0.0,17.00,32.809,0.00005,0.00800,7.266,0.014,1515.37,0.00005,163931.7,17.0251427,-61.8732109,8.500,13.20,30.08,28.600,-999,-999,127.6,142.2,3.70,-0.20,0.10
"2018-03-15 16:50:00",-9,3.36,3.01,13.94,0.11,11.95,138.82,115.23,1024.24,34.907,17.88,-93.0,0.0,3.667,616.7,8.504,2054.7,117.0,130.1,0.80,3.50,9.90,28.700,53.0,1017.30,0.00,0.0,0.00,0.0,0.0,0.00,0.00,0.0,17.00,32.461,0.00005,0.01100,7.291,0.014,1514.63,0.00004,164931.8,17.0251160,-61.8732033,18.100,13.10,30.11,28.500,-999,-999,112.9,127.5,3.00,-0.40,0.10
"2018-03-15 17:00:00",-9,3.36,3.01,13.96,0.11,11.94,140.62,119.63,1024.70,34.919,18.00,-93.0,0.0,4.540,762.8,8.421,2034.9,129.0,142.2,0.30,2.80,7.70,28.500,55.5,1017.20,0.00,0.0,0.00,0.0,0.0,0.00,0.00,0.0,17.00,32.530,0.00005,0.01000,7.308,0.014,1514.78,0.00004,165931.8,17.0251427,-61.8732109,18.600,13.20,30.11,28.700,-999,-999,115.4,130.0,2.60,-0.40,0.10
"2018-03-15 17:10:00",-9,3.36,3.01,13.98,0.11,11.96,141.46,117.58,1025.25,35.015,18.05,-93.0,0.0,6.727,1130.5,8.376,2022.5,119.0,132.1,1.30,4.00,9.50,29.100,51.2,1017.10,0.00,0.0,0.00,0.0,0.0,0.00,0.00,0.0,30.10,32.706,0.00005,0.00900,7.332,0.014,1515.15,0.00004,170931.7,17.0251389,-61.8731918,18.400,13.10,30.10,29.000,-999,-999,115.1,129.7,3.70,-0.30,0.10
"2018-03-15 17:20:00",-9,3.36,3.01,14.01,0.12,11.94,142.48,118.31,1025.74,35.123,18.09,-93.0,0.0,3.904,657.1,8.176,1974.1,127.0,140.2,0.30,3.10,8.50,28.600,55.4,1016.90,0.00,0.0,0.00,0.0,0.0,0.00,0.00,0.0,17.00,32.636,0.00005,0.00900,7.332,0.014,1515.00,0.00004,171931.7,17.0250854,-61.8731918,10.900,13.20,30.08,29.000,-999,-999,145.4,160.0,2.80,-0.20,0.10
"2018-03-15 17:30:00",-9,3.36,3.01,13.60,0.10,11.97,146.78,119.04,1026.22,35.255,18.10,-93.0,0.0,3.688,620.0,6.226,1491.1,115.0,128.2,0.30,3.00,10.20,28.400,55.4,1016.90,0.00,0.0,0.00,0.0,0.0,0.00,0.00,0.0,17.00,32.486,0.00005,0.00700,7.336,0.014,1514.68,0.00004,172931.8,17.0251141,-61.8731728,0.600,13.20,30.03,28.600,-999,-999,126.2,140.8,3.90,-0.30,0.10
"2018-03-15 17:40:00",-9,3.36,3.01,13.55,0.12,11.95,147.46,118.36,1026.71,35.388,18.14,-91.0,0.0,4.682,787.7,8.310,2005.6,140.0,153.2,0.20,3.00,8.60,28.400,54.8,1016.70,0.00,0.0,0.00,0.0,0.0,0.00,0.00,0.0,17.00,32.497,0.00005,0.00500,7.346,0.014,1514.70,0.00004,173931.7,17.0251064,-61.8731842,9.600,13.20,30.06,28.600,-999,-999,122.6,137.2,4.10,-0.30,0.10
"2018-03-15 17:50:00",-9,3.36,3.01,13.92,0.10,11.96,143.80,118.51,1027.12,35.491,18.23,-93.0,0.0,5.780,972.7,4.675,1123.5,135.0,148.2,0.20,3.00,8.70,28.400,55.7,1016.60,0.00,0.0,0.00,0.0,0.0,0.00,0.00,0.0,17.00,32.237,0.00005,0.00500,7.352,0.014,1514.15,0.00004,174931.7,17.0251007,-61.8731766,17.800,13.20,30.09,28.600,-999,-999,127.3,141.9,1.50,-0.40,0.10
"2018-03-15 18:00:00",-9,3.36,3.02,13.57,0.13,11.97,149.17,117.68,1027.60,35.761,18.18,-93.0,0.0,4.912,824.7,8.213,1982.8,118.0,131.4,0.30,3.80,9.50,28.700,54.5,1016.30,0.00,0.0,0.00,0.0,0.0,0.00,0.00,0.0,17.00,32.294,0.00005,0.00100,7.367,0.014,1514.27,0.00004,175931.7,17.0251007,-61.8732109,17.400,13.40,30.08,28.700,-999,-999,127.1,141.7,3.30,-0.30,0.10
"2018-03-15 18:10:00",-9,3.36,3.02,13.59,0.12,11.95,145.95,116.85,1027.94,35.798,18.30,-93.0,0.0,3.796,638.1,7.348,1776.0,118.0,131.1,2.00,5.30,11.20,28.400,51.4,1016.30,0.00,0.0,0.00,0.0,0.0,0.00,0.00,0.0,17.00,32.372,0.00005,0.00200,7.365,0.014,1514.44,0.00004,180931.6,17.0251236,-61.8732109,11.800,13.10,30.06,28.500,-999,-999,123.0,137.6,3.10,-0.30,0.10
"2018-03-15 18:20:00",-9,3.36,3.02,13.92,0.14,11.95,141.99,119.19,1028.18,35.841,18.36,-93.0,0.0,4.104,690.2,7.092,1710.8,140.0,152.9,0.10,2.80,7.50,28.400,52.6,1016.20,0.00,0.0,0.00,0.0,0.0,0.00,0.00,0.0,17.00,32.232,0.00005,0.00200,7.370,0.014,1514.14,0.00004,181931.6,17.0250969,-61.8731766,1.000,12.90,30.01,28.400,-999,-999,117.3,131.9,3.50,-0.30,0.10
"2018-03-15 18:30:00",-9,3.36,3.02,13.94,0.12,11.95,141.70,119.19,1028.54,36.131,18.25,-93.0,0.0,5.499,923.3,6.901,1667.0,116.0,129.1,0.30,3.70,8.70,28.700,47.1,1016.10,0.00,0.0,0.00,0.0,0.0,0.00,0.00,0.0,17.00,32.314,0.00005,0.00000,7.367,0.014,1514.31,0.00004,182931.7,17.0251064,-61.8732147,14.900,13.10,30.06,28.700,-999,-999,115.1,129.7,3.10,-0.30,0.10
"2018-03-15 18:40:00",-9,3.36,3.02,13.96,0.13,11.96,125.10,118.65,1028.92,36.744,17.87,-95.0,0.0,8.743,1470.3,6.689,1616.1,120.0,133.1,0.30,4.10,9.50,28.500,49.2,1015.80,0.00,0.0,0.00,0.0,0.0,0.00,0.00,0.0,17.00,32.295,0.00005,-0.00100,7.370,0.014,1514.27,0.00004,183931.7,17.0250854,-61.8731918,16.900,13.10,30.06,28.500,-999,-999,117.1,131.7,3.70,-0.30,0.10
"2018-03-15 18:50:00",-9,3.36,3.02,14.02,0.11,11.96,125.34,118.70,1029.13,36.620,18.02,-93.0,0.0,5.554,933.6,6.409,1545.5,124.0,137.0,0.60,3.80,8.90,28.300,53.4,1015.70,0.00,0.0,0.00,0.0,0.0,0.00,0.00,0.0,17.00,32.058,0.00005,-0.00500,7.384,0.014,1513.76,0.00004,184931.8,17.0251141,-61.8731842,17.900,13.00,30.06,28.300,-999,-999,109.3,123.9,2.60,-0.30,0.10
"2018-03-15 19:00:00",-9,3.36,3.02,14.03,0.13,11.94,125.15,119.19,1029.48,36.729,18.05,-93.0,0.0,4.903,830.8,4.991,1204.1,135.0,148.1,0.30,3.00,8.40,28.000,58.5,1015.60,0.00,0.0,0.00,0.0,0.0,0.00,0.00,0.0,17.00,31.979,0.00005,-0.00400,7.382,0.014,1513.59,0.00004,185931.7,17.0251064,-61.8731918,14.900,13.10,30.04,28.000,-999,-999,122.4,137.0,3.80,-0.20,0.10
"2018-03-15 19:10:00",-9,3.36,3.03,14.22,0.13,11.96,130.22,116.06,1029.92,36.894,18.03,-93.0,0.0,6.060,1018.1,5.912,1428.0,133.0,146.2,0.20,3.30,8.80,28.100,57.7,1015.50,0.00,0.0,0.00,0.0,0.0,0.00,0.00,0.0,17.00,31.993,0.00005,-0.00500,7.391,0.014,1513.62,0.00004,190931.7,17.0251045,-61.8732300,12.400,13.20,30.03,28.300,-999,-999,136.7,151.3,2.70,-0.20,0.10
"2018-03-15 19:20:00",-9,3.36,3.03,13.56,0.11,11.96,149.66,119.48,1030.30,37.117,17.97,-93.0,0.0,8.176,1374.0,5.552,1341.1,115.0,128.1,0.30,4.70,9.50,28.100,58.3,1015.50,0.00,20.0,0.10,0.0,0.0,0.00,0.00,0.0,12.00,32.092,0.00005,-0.00600,7.394,0.014,1513.83,0.00004,191931.7,17.0250969,-61.8731918,24.200,13.10,30.08,28.300,-999,-999,111.3,125.9,3.00,-0.20,0.10
"2018-03-15 19:30:00",-9,3.37,3.03,13.57,0.12,11.94,148.24,118.36,1030.47,37.131,18.04,-93.0,0.0,3.453,579.8,5.185,1252.9,117.0,130.1,0.80,4.40,9.30,27.900,57.2,1015.30,0.00,0.0,0.00,0.0,0.0,0.00,0.00,0.0,17.00,31.902,0.00005,-0.00900,7.398,0.014,1513.42,0.00004,192931.8,17.0251331,-61.8731766,18.100,13.10,30.05,27.800,-999,-999,119.5,134.1,4.90,-0.30,0.30
"2018-03-19 14:30:00",-9,3.36,2.98,14.09,0.14,11.95,165.28,120.56,1023.79,34.190,14.50,-99.0,0.0,1.619,266.4,7.647,1845.3,112.0,212.3,0.00,2.60,5.30,27.600,57.8,1014.60,0.00,0.0,0.00,0.0,0.0,0.00,0.00,0.0,17.00,26.769,5.69687,0.93100,5.245,36.470,1540.14,5.50221,142928.3,17.0250626,-61.8734436,7.100,100.30,29.99,27.500,-999,-999,129.1,143.7,2.40,-4.60,-1.20
"2018-03-19 14:40:00",-9,3.36,2.98,14.04,0.12,11.98,140.62,118.16,1024.98,34.335,14.94,-87.0,61868.0,1.377,231.6,7.749,1875.8,145.0,211.1,0.20,2.10,4.50,27.700,57.9,1014.50,0.00,0.0,0.00,0.0,0.0,0.00,0.00,0.0,17.00,26.842,5.70064,0.94100,5.312,36.439,1540.28,5.49806,143928.1,17.0250969,-61.8734436,14.500,66.10,30.02,27.600,-999,-999,129.0,143.6,2.30,-1.10,-0.90
"2018-03-19 14:50:00",-9,3.36,2.98,13.83,0.10,11.95,143.65,119.92,1026.02,34.925,14.98,-95.0,61868.0,1.229,206.5,8.048,1939.4,160.0,207.6,0.20,2.50,6.20,27.700,59.8,1014.60,0.00,10.0,0.00,0.0,0.0,0.00,0.00,0.0,17.00,26.844,5.69413,0.94300,5.358,36.391,1540.23,5.49166,144928.2,17.0250626,-61.8734436,12.700,47.60,30.01,27.800,-999,-999,115.3,129.9,2.90,-2.60,2.00
"2018-03-19 15:00:00",-9,3.36,2.99,13.82,0.11,11.95,145.02,118.55,1026.98,35.166,15.11,-91.0,61868.0,1.220,204.0,7.957,1920.1,137.0,204.4,0.20,2.30,7.60,27.700,62.2,1014.60,0.00,0.0,0.00,0.0,0.0,0.00,0.00,0.0,17.00,26.841,5.69395,0.94200,5.379,36.392,1540.22,5.49172,145928.2,17.0250912,-61.8734703,16.000,67.40,30.02,28.000,-999,-999,118.4,133.0,2.10,-3.90,-3.10
"2018-03-19 15:10:00",-9,3.36,2.99,14.08,0.10,11.95,112.70,79.15,1027.85,35.779,14.95,-93.0,61868.0,1.800,301.5,8.718,2103.8,239.0,239.0,0.00,2.50,5.50,27.800,60.1,1014.40,0.00,0.0,0.00,0.0,0.0,0.00,0.00,0.0,17.00,26.928,5.70177,0.91900,5.415,36.380,1540.41,5.49011,-999,-999,-999,-999,-999,-999,-999,-999,-999,-999,-999,-999,-999,-999
"2018-03-19 15:20:00",-9,3.36,3.00,13.76,0.16,11.95,141.65,119.29,1028.40,35.566,15.36,-91.0,61868.0,2.163,363.0,8.465,2041.1,333.0,255.3,2.20,6.10,8.30,27.700,63.2,1014.40,0.00,0.0,0.00,0.0,0.0,0.00,0.00,0.0,17.00,27.320,5.71648,0.91900,5.504,36.179,1541.08,5.46294,151928.1,17.0242844,-61.8739090,7.400,282.30,29.99,27.800,-999,-999,136.8,151.4,1.70,1.50,-1.00
"2018-03-19 15:30:00",-9,3.36,3.00,14.06,0.12,11.96,138.96,118.51,1027.01,34.026,16.39,-73.0,61868.0,2.101,353.7,8.367,2008.1,7.0,213.5,4.70,6.50,7.90,25.800,69.1,1014.00,0.00,10.0,0.00,0.0,0.0,0.00,0.00,0.0,17.00,26.786,5.67795,0.85600,6.388,36.320,1540.02,5.48216,152928.2,17.0203953,-61.8735275,11.400,206.50,29.99,25.200,-999,-999,130.8,145.4,6.50,2.60,-7.10
"2018-03-19 15:40:00",-9,3.36,3.00,13.76,0.08,11.95,139.06,118.21,1023.39,32.223,17.41,-67.0,61868.0,2.255,428.8,8.816,2099.1,300.0,205.7,2.60,5.50,7.40,25.900,69.1,1014.00,0.01,20.0,0.00,0.0,0.0,0.00,0.00,0.0,17.00,26.765,5.67728,0.88500,6.412,36.331,1539.99,5.48365,153928.0,17.0166454,-61.8721924,12.300,265.70,29.98,25.400,-999,-999,129.6,144.2,6.60,-8.50,0.80
"2018-03-19 15:50:00",-9,3.36,3.00,14.04,0.10,11.94,141.65,119.63,1022.44,31.251,17.73,-63.0,61868.0,1.305,222.8,8.628,2119.8,92.0,217.1,3.80,5.30,6.50,25.800,71.1,1013.90,0.00,0.0,0.00,0.0,0.0,0.00,0.00,0.0,17.00,26.770,5.67902,0.92100,6.243,36.340,1540.01,5.48482,154928.2,17.0155506,-61.8722572,12.500,125.10,29.99,24.900,-999,-999,125.0,139.6,5.80,-0.80,1.80
"2018-03-19 16:00:00",-9,3.36,3.01,14.06,0.08,11.97,139.75,117.72,1022.01,30.790,17.61,-73.0,61868.0,1.704,258.3,9.201,2239.9,129.0,208.9,4.90,6.60,8.40,25.800,72.0,1013.70,0.01,30.0,0.00,0.0,0.0,0.00,0.00,0.0,17.00,26.840,5.68729,0.99800,6.276,36.344,1540.17,5.48540,155928.1,17.0155678,-61.8722572,14.500,79.90,29.98,24.900,-999,-999,131.0,145.6,7.20,0.20,-5.00
"2018-03-19 16:10:00",-9,3.36,3.01,13.82,0.08,11.94,144.34,119.48,1021.59,30.555,17.40,-71.0,61868.0,1.294,211.0,9.358,2140.9,125.0,210.1,4.50,6.40,8.40,25.900,69.6,1013.60,0.00,0.0,0.00,0.0,0.0,0.00,0.00,0.0,12.00,26.917,5.69678,0.95800,6.481,36.352,1540.36,5.48639,160928.2,17.0155678,-61.8722496,8.400,85.10,29.96,24.800,-999,-999,129.4,144.0,7.20,-7.10,-1.30
"2018-03-19 16:20:00",-9,3.36,3.01,13.99,0.08,11.95,136.87,115.23,1021.13,30.352,17.19,-67.0,61868.0,1.540,247.3,8.631,2098.5,131.0,211.0,4.00,6.40,8.20,25.800,66.7,1013.50,0.00,0.0,0.00,0.0,0.0,0.00,0.00,0.0,17.00,26.927,5.69643,1.03300,6.533,36.342,1540.37,5.48504,161927.9,17.0155544,-61.8722496,12.900,80.00,29.97,24.800,-999,-999,124.7,139.3,7.50,4.70,-7.80
"2018-03-19 16:30:00",-9,3.36,3.01,13.79,0.11,11.94,140.77,118.21,1021.15,30.138,17.05,-69.0,61868.0,1.593,250.8,8.603,2099.8,131.0,206.7,3.60,6.60,8.50,25.900,68.7,1013.20,0.00,0.0,0.00,0.0,0.0,0.00,0.00,0.0,17.00,26.964,5.70105,1.02100,6.729,36.346,1540.46,5.48553,162927.9,17.0155582,-61.8722687,13.300,75.70,29.97,24.900,-999,-999,124.7,139.3,7.10,-9.20,4.30
"2018-03-19 16:40:00",-9,3.36,3.01,13.77,0.10,11.95,162.74,118.16,1020.92,30.935,16.05,0.0,61817.0,1.902,297.6,8.880,2123.7,129.0,203.4,0.00,6.90,9.10,25.800,72.3,1013.10,0.00,0.0,0.00,0.0,0.0,0.00,0.00,0.0,17.10,26.986,5.70197,1.10000,6.703,36.336,1540.50,5.48413,163928.1,17.0155602,-61.8722687,14.300,74.40,29.97,24.900,-999,-999,122.2,136.8,7.20,-3.40,-2.10
"2018-03-19 16:50:00",-9,3.36,3.01,13.95,0.11,11.96,137.55,118.60,1020.34,30.202,16.45,-67.0,61868.0,1.585,255.7,8.556,2083.5,134.0,209.6,4.60,7.00,9.40,25.800,71.8,1013.00,0.00,0.0,0.00,0.0,0.0,0.00,0.00,0.0,17.00,26.989,5.70378,1.06900,6.719,36.346,1540.51,5.48555,164928.0,17.0155678,-61.8722687,15.200,75.60,29.97,24.800,-999,-999,122.2,136.8,7.00,-3.40,3.60
"2018-03-19 17:00:00",-9,3.36,3.01,13.98,0.11,11.95,142.82,118.02,1019.78,29.762,16.60,-67.0,61868.0,1.486,245.9,8.420,2048.4,131.0,205.2,4.60,7.30,9.20,25.800,71.1,1012.80,0.00,0.0,0.00,0.0,0.0,0.00,0.00,0.0,17.00,27.012,5.70678,1.04500,6.774,36.350,1540.57,5.48607,165928.0,17.0155830,-61.8722687,12.000,74.20,29.95,24.700,-999,-999,121.7,136.3,7.40,0.00,-2.70
"2018-03-19 17:10:00",-9,3.36,3.01,13.95,0.09,11.95,139.65,118.51,1019.52,29.605,16.49,-69.0,61868.0,1.462,240.9,8.379,2024.7,132.0,205.1,3.30,6.70,8.70,25.700,72.2,1012.60,0.00,0.0,0.00,0.0,0.0,0.00,0.00,0.0,17.00,27.040,5.71199,1.02500,6.853,36.365,1540.65,5.48806,170928.0,17.0156536,-61.8722878,19.900,73.10,29.98,24.700,-999,-999,123.3,137.9,7.20,-0.30,-4.70
"2018-03-19 17:20:00",-9,3.36,3.01,13.31,0.12,11.96,219.14,116.80,1019.55,30.707,15.45,0.0,0.0,1.398,245.8,8.395,2006.0,172.0,199.1,0.00,6.20,8.70,25.800,68.7,1012.50,0.00,30.0,0.00,0.0,0.0,0.00,0.00,0.0,17.00,27.051,5.71206,0.96900,6.840,36.357,1540.66,5.48698,171928.0,17.0155544,-61.8722687,15.300,27.10,29.95,25.000,-999,-999,126.9,141.5,7.00,4.50,-1.00
"2018-03-19 17:30:00",-9,3.36,3.01,13.23,0.11,11.95,156.74,81.25,1019.43,30.798,15.27,0.0,0.0,1.532,266.7,8.464,1964.2,173.0,173.0,0.00,6.60,8.10,25.900,72.9,1012.40,0.00,0.0,0.00,0.0,0.0,0.00,0.00,0.0,17.00,27.071,5.71261,0.99600,6.835,36.346,1540.70,5.48545,-999,-999,-999,-999,-999,-999,-999,-999,-999,-999,-999,-999,-999,-999
"2018-03-19 17:40:00",-9,3.37,3.00,13.17,0.13,11.95,211.52,116.46,1019.40,31.794,14.81,0.0,61817.0,1.462,260.2,8.176,1937.0,171.0,201.6,4.00,5.90,7.60,25.900,67.6,1012.40,0.00,0.0,0.00,0.0,0.0,0.00,0.00,0.0,17.00,27.049,5.71316,1.03000,6.823,36.367,1540.67,5.48821,173928.0,17.0155449,-61.8722763,15.500,30.60,29.95,24.900,-999,-999,116.8,131.4,6.70,-2.90,3.10
"2018-03-19 17:50:00",-9,3.36,3.00,13.13,0.07,11.94,203.37,119.82,1019.21,32.056,14.84,0.0,61817.0,1.488,260.5,7.815,1925.7,172.0,186.9,4.40,6.10,7.80,25.900,68.5,1012.20,0.01,50.0,0.20,0.0,0.0,0.00,0.00,0.0,12.00,27.046,5.71236,0.98400,6.807,36.363,1540.66,5.48776,174928.0,17.0155315,-61.8722763,14.700,14.90,29.94,25.000,-999,-999,101.9,116.5,6.70,-5.00,-8.00
"2018-03-19 18:00:00",-9,3.36,3.00,13.08,0.12,11.97,225.05,116.36,1019.18,32.149,15.16,0.0,61817.0,1.789,266.3,8.122,1908.2,173.0,200.5,4.10,5.90,8.30,25.900,68.2,1012.10,0.04,90.0,0.00,0.0,0.0,0.00,0.00,0.0,17.00,27.023,5.71054,1.04600,6.745,36.368,1540.61,5.48849,175928.0,17.0155315,-61.8722687,15.200,27.50,29.94,25.100,-999,-999,116.1,130.7,6.90,-0.80,-5.40
"2018-03-19 18:10:00",-9,3.36,3.01,13.12,0.09,11.95,150.73,119.87,1018.93,30.655,16.77,-81.0,61868.0,1.563,256.9,7.679,1802.7,-999,-999,-999,-999,-999,-999,-999,-999,-999,-999,-999,-999,-999,-999,-999,-999,-999,-999,-999,-999,-999,-999,-999,-999,180928.0,17.0155258,-61.8722687,15.600,30.30,29.94,25.100,-999,-999,110.9,125.5,6.40,1.70,-1.10
"2018-03-19 18:20:00",-9,3.36,3.00,14.04,4.77,11.97,156.93,118.41,1019.37,31.312,17.04,-73.0,61868.0,1.371,228.9,7.580,1827.3,122.0,194.5,0.00,6.20,8.10,25.900,67.3,1011.90,0.00,0.0,0.00,0.0,0.0,0.00,0.00,0.0,17.00,27.019,5.70991,1.07000,6.679,36.367,1540.60,5.48827,181927.9,17.0155449,-61.8722687,19.000,72.50,29.95,24.700,-999,-999,109.6,124.2,6.30,0.70,-8.10
"2018-03-19 18:30:00",-9,3.36,3.00,14.11,3.43,11.95,139.40,120.21,1019.39,30.348,18.05,-69.0,61868.0,1.387,224.3,6.593,1672.4,127.0,200.1,4.80,6.20,7.90,25.900,69.3,1011.90,0.00,0.0,0.00,0.0,0.0,0.00,0.00,0.0,17.00,27.029,5.71081,1.05100,6.656,36.366,1540.62,5.48812,182927.9,17.0155582,-61.8722572,18.800,73.10,29.95,24.700,-999,-999,119.1,133.7,6.80,5.60,-4.50
"2018-03-19 18:40:00",-9,3.36,3.00,13.73,7.11,11.95,143.41,115.97,1019.65,30.424,17.72,-67.0,61868.0,1.388,225.3,6.956,1652.6,120.0,193.6,4.40,6.10,8.00,25.800,70.0,1011.80,0.00,0.0,0.00,0.0,0.0,0.00,0.00,0.0,17.00,27.033,5.71158,0.92800,6.657,36.368,1540.63,5.48842,183928.0,17.0155487,-61.8722687,11.900,73.60,29.92,24.700,-999,-999,109.9,124.5,7.00,0.40,-0.10
"2018-03-19 18:50:00",-9,3.36,3.01,14.21,5.39,11.95,143.65,119.63,1019.70,30.529,17.41,-67.0,61868.0,1.422,233.8,6.670,1615.7,128.0,204.0,3.90,5.70,7.50,25.800,72.0,1011.80,0.00,0.0,0.00,0.0,0.0,0.00,0.00,0.0,17.00,27.027,5.71077,1.04000,6.641,36.367,1540.62,5.48826,184928.1,17.0155449,-61.8722687,12.500,76.00,29.93,24.700,-999,-999,122.5,137.1,6.20,-0.80,3.10
"2018-03-19 19:00:00",-9,3.36,3.00,14.24,2.54,11.93,135.16,118.02,1020.04,30.355,17.35,0.0,61868.0,1.463,230.6,6.089,1455.8,126.0,203.1,3.60,5.50,7.20,25.800,68.4,1011.80,0.00,0.0,0.00,0.0,0.0,0.00,0.00,0.0,17.00,27.019,5.71015,1.01800,6.632,36.369,1540.60,5.48853,185928.1,17.0155640,-61.8722496,16.400,77.10,29.94,24.700,-999,-999,115.2,129.8,6.60,-2.10,-3.10
"2018-03-19 19:10:00",-9,3.36,3.00,13.73,0.33,11.94,142.92,118.55,1020.50,30.471,17.17,0.0,61868.0,1.260,225.2,5.731,1402.6,125.0,199.7,3.30,5.30,8.30,25.800,70.6,1011.70,0.00,0.0,0.00,0.0,0.0,0.00,0.00,0.0,17.00,27.017,5.71003,0.99300,6.654,36.370,1540.60,5.48866,190928.0,17.0155602,-61.8722496,16.200,74.70,29.94,24.700,-999,-999,114.1,128.7,6.20,0.10,-2.30
"2018-03-19 19:20:00",-9,3.36,3.00,13.73,0.12,11.96,142.19,118.36,1020.97,30.763,16.90,-69.0,61823.0,1.674,216.9,5.655,1305.6,120.0,194.0,3.80,5.80,7.10,25.800,69.2,1011.70,0.00,0.0,0.00,0.0,0.0,0.00,0.00,0.0,17.00,27.015,5.71022,1.01500,6.662,36.372,1540.60,5.48901,191928.0,17.0155582,-61.8722496,18.100,74.00,29.94,24.700,-999,-999,118.6,133.2,6.90,-0.20,-4.40
"2018-03-19 19:30:00",-9,3.36,3.00,13.71,0.11,11.94,136.57,116.02,1021.42,31.173,16.57,-69.0,61868.0,2.051,864.3,6.015,1292.8,122.0,195.9,4.10,5.40,8.00,25.800,70.3,1011.60,0.00,0.0,0.00,0.0,0.0,0.00,0.00,0.0,17.00,27.030,5.71206,1.04300,6.691,36.374,1540.64,5.48921,192927.9,17.0155544,-61.8722420,12.300,73.90,29.92,24.700,-999,-999,119.1,133.7,6.20,-8.70,1.30
"2018-03-19 19:40:00",-9,3.36,3.00,14.31,0.13,11.94,144.04,118.65,1021.78,31.416,16.44,-69.0,61868.0,5.296,254.1,4.801,1214.4,126.0,201.6,3.00,5.00,6.80,25.800,70.7,1011.50,0.00,0.0,0.00,0.0,0.0,0.00,0.00,0.0,17.00,27.038,5.71228,0.97900,6.706,36.369,1540.65,5.48855,193928.0,17.0155602,-61.8722420,15.200,75.60,29.93,24.700,-999,-999,118.4,133.0,6.20,5.40,-4.20
"2018-03-19 19:50:00",-9,3.36,3.00,13.73,0.10,11.95,140.43,118.12,1022.30,31.732,16.28,-67.0,0.0,1.199,517.7,5.072,1315.2,122.0,196.5,4.40,6.00,7.80,25.800,70.9,1011.50,0.00,0.0,0.00,0.0,0.0,0.00,0.00,0.0,17.00,27.057,5.71474,1.02800,6.753,36.372,1540.69,5.48889,194928.0,17.0155487,-61.8722572,12.400,74.50,29.91,24.700,-999,-999,107.4,122.0,5.90,-2.80,-0.20
"2018-03-19 20:00:00",-9,3.36,3.00,13.70,0.11,11.95,144.34,119.19,1022.48,31.519,16.52,-69.0,0.0,4.466,768.6,4.239,1070.9,122.0,195.3,3.10,5.60,7.50,25.800,71.1,1011.50,0.00,0.0,0.00,0.0,0.0,0.00,0.00,0.0,17.00,27.047,5.71431,0.98900,6.759,36.376,1540.68,5.48953,195927.9,17.0155544,-61.8722687,11.000,73.30,29.91,24.700,-999,-999,112.9,127.5,6.60,-1.20,-0.70
"2018-03-19 20:10:00",-9,3.36,3.00,14.36,0.10,11.95,142.63,117.38,1022.66,31.445,16.69,-67.0,0.0,4.840,821.2,4.271,932.9,120.0,193.3,4.70,5.90,7.10,25.800,71.1,1011.50,0.00,0.0,0.00,0.0,0.0,0.00,0.00,0.0,17.00,27.042,5.71330,1.08300,6.747,36.374,1540.66,5.48916,200927.9,17.0155582,-61.8722687,12.500,73.30,29.92,24.700,-999,-999,111.3,125.9,6.20,1.60,1.20
"2018-03-19 21:00:00",-9,3.36,3.00,13.71,0.10,11.96,145.31,116.16,1019.99,29.895,17.33,-67.0,0.0,2.761,291.5,2.278,625.3,125.0,200.1,4.30,5.90,8.90,25.900,68.8,1011.90,0.00,0.0,0.00,0.0,0.0,0.00,0.00,0.0,17.00,26.993,5.70828,0.98800,6.666,36.375,1540.55,5.48945,205927.8,17.0155506,-61.8722687,10.700,75.10,29.92,24.700,-999,-999,116.0,130.6,6.20,0.50,-5.40
"2018-03-19 21:10:00",-9,3.36,3.00,13.69,0.08,11.95,139.60,118.75,1019.45,29.456,17.46,-67.0,0.0,1.972,497.6,1.952,496.2,121.0,199.4,3.90,5.70,8.50,25.900,72.8,1012.00,0.00,0.0,0.00,0.0,0.0,0.00,0.00,0.0,17.00,26.952,5.70486,0.97700,6.596,36.383,1540.47,5.49048,210927.9,17.0155506,-61.8722763,8.000,78.40,29.91,24.600,-999,-999,117.6,132.2,6.10,-3.90,0.70
"2018-03-19 21:20:00",-9,3.36,3.00,14.06,0.09,11.93,141.02,118.99,1018.70,29.131,17.49,-67.0,0.0,2.208,341.5,1.054,306.9,121.0,199.4,4.10,5.80,7.60,25.800,71.2,1012.00,0.00,0.0,0.00,0.0,0.0,0.00,0.00,0.0,17.00,26.932,5.70195,1.04100,6.597,36.378,1540.42,5.48985,211927.9,17.0155602,-61.8722801,10.800,78.40,29.92,24.500,-999,-999,116.5,131.1,6.50,7.50,-4.50
"2018-03-19 21:30:00",-9,3.36,3.00,13.73,0.11,11.94,141.65,117.24,1018.08,29.000,17.31,-67.0,0.0,2.030,287.6,1.094,240.4,124.0,203.9,4.10,5.30,7.20,25.800,68.2,1012.00,0.00,0.0,0.00,0.0,0.0,0.00,0.00,0.0,17.00,26.911,5.69932,0.98300,6.594,36.376,1540.37,5.48955,212927.9,17.0155544,-61.8722687,17.000,79.90,29.94,24.400,-999,-999,118.5,133.1,6.40,3.00,-8.50
"2018-03-19 21:40:00",-9,3.36,3.00,13.73,0.12,11.95,145.17,118.55,1017.25,28.628,17.34,-69.0,0.0,0.758,188.0,0.766,182.1,121.0,201.1,4.30,6.00,7.60,25.800,69.0,1012.00,0.00,0.0,0.00,0.0,0.0,0.00,0.00,0.0,17.00,26.901,5.69769,1.00400,6.598,36.372,1540.34,5.48900,213928.0,17.0155697,-61.8722878,7.300,80.10,29.91,24.400,-999,-999,109.6,124.2,6.70,5.20,-4.30
"2018-03-19 21:50:00",-9,3.36,3.00,14.04,0.09,11.95,138.28,118.02,1016.64,28.462,17.16,-67.0,0.0,0.572,81.5,0.639,172.1,115.0,193.0,3.50,5.60,7.20,25.800,68.8,1012.00,0.00,0.0,0.00,0.0,0.0,0.00,0.00,0.0,17.00,26.884,5.69643,1.05700,6.592,36.376,1540.31,5.48958,214927.9,17.0155640,-61.8722763,11.500,78.00,29.93,24.400,-999,-999,108.4,123.0,6.40,3.00,-6.30
"2018-03-19 22:00:00",-9,3.36,3.00,13.77,0.12,11.93,141.94,115.77,1016.07,28.199,17.05,-69.0,0.0,0.328,40.5,0.352,120.6,118.0,196.9,4.10,5.80,8.00,25.800,69.7,1012.10,0.00,0.0,0.00,0.0,0.0,0.00,0.00,0.0,17.00,26.871,5.69411,1.03000,6.604,36.369,1540.27,5.48871,215928.0,17.0155678,-61.8722801,5.900,78.90,29.91,24.400,-999,-999,116.3,130.9,6.40,2.50,-0.10
"2018-03-19 22:10:00",-9,3.36,3.00,13.47,0.11,11.95,145.07,117.77,1015.67,27.931,16.95,-69.0,0.0,0.095,14.4,0.106,22.6,117.0,197.8,3.70,5.20,6.90,25.800,67.6,1012.30,0.00,0.0,0.00,0.0,0.0,0.00,0.00,0.0,17.00,26.879,5.69556,1.06500,6.641,36.374,1540.29,5.48926,220927.9,17.0155697,-61.8722763,9.500,80.80,29.93,24.300,-999,-999,112.7,127.3,6.10,-4.00,0.30
"2018-03-19 22:20:00",-9,3.36,3.00,13.33,0.09,11.94,146.44,118.85,1015.17,27.670,16.88,-67.0,0.0,0.023,3.4,0.016,4.4,108.0,187.4,2.80,4.80,6.60,25.800,69.1,1012.40,0.00,0.0,0.00,0.0,0.0,0.00,0.00,0.0,17.00,26.875,5.69486,0.98300,6.603,36.372,1540.28,5.48903,221927.9,17.0155792,-61.8722687,10.400,79.40,29.94,24.300,-999,-999,105.1,119.7,5.80,3.90,-2.50
"2018-03-19 22:30:00",-9,3.36,3.00,13.24,0.11,11.94,148.63,118.55,1014.53,27.408,16.86,-69.0,0.0,-0.004,-1.2,-0.013,-2.7,93.0,173.2,3.40,4.50,5.60,25.800,66.1,1012.30,0.00,0.0,0.00,0.0,0.0,0.00,0.00,0.0,17.00,26.904,5.69981,1.02900,6.588,36.385,1540.36,5.49072,222927.8,17.0155735,-61.8722763,9.500,80.20,29.93,24.300,-999,-999,98.8,113.4,5.50,1.10,-3.20
"2018-03-19 22:40:00",-9,3.36,3.00,13.23,0.07,11.94,148.63,119.78,1014.32,27.188,16.79,-69.0,0.0,-0.008,-1.8,-0.018,-4.5,107.0,185.9,3.40,4.30,5.50,25.700,71.0,1012.30,0.00,0.0,0.00,0.0,0.0,0.00,0.00,0.0,17.00,26.869,5.69622,1.00700,6.589,36.386,1540.28,5.49093,223927.8,17.0155582,-61.8722763,10.200,78.90,29.93,24.300,-999,-999,100.2,114.8,5.10,2.50,-2.60
"2018-03-19 22:50:00",-9,3.36,3.00,13.22,0.09,11.97,143.95,119.43,1014.27,27.034,16.71,-67.0,0.0,-0.010,-1.7,-0.013,-3.9,99.0,175.6,2.70,4.00,5.50,25.600,68.2,1012.50,0.00,0.0,0.00,0.0,0.0,0.00,0.00,0.0,17.00,26.889,5.69748,1.04000,6.607,36.380,1540.32,5.49009,224927.8,17.0155602,-61.8722763,8.000,76.60,29.93,24.100,-999,-999,96.8,111.4,5.00,2.40,0.00
"2018-03-19 23:00:00",-9,3.36,3.00,13.20,0.09,11.92,145.65,119.24,1014.12,26.909,16.67,-67.0,0.0,-0.010,-1.9,-0.016,-3.6,81.0,157.5,2.30,3.30,4.20,25.500,69.0,1012.60,0.00,0.0,0.00,0.0,0.0,0.00,0.00,0.0,17.00,26.900,5.69839,0.98400,6.604,36.377,1540.34,5.48976,225927.8,17.0155582,-61.8722687,8.200,76.50,29.94,24.000,-999,-999,85.2,99.8,4.00,3.40,-3.60
"2018-03-19 23:10:00",-9,3.36,3.00,13.19,0.12,11.95,152.39,117.43,1014.11,26.801,16.61,-67.0,0.0,-0.010,-1.8,-0.017,-4.1,81.0,155.7,2.40,3.60,4.50,25.400,68.1,1012.70,0.00,0.0,0.00,0.0,0.0,0.00,0.00,0.0,17.10,26.911,5.69938,0.99700,6.645,36.376,1540.37,5.48956,230927.8,17.0155411,-61.8722763,7.100,74.70,29.93,23.900,-999,-999,71.1,85.7,4.00,0.30,1.00
"2018-03-19 23:20:00",-9,3.36,3.00,13.15,0.09,11.96,146.14,119.34,1014.15,26.745,16.56,-67.0,0.0,-0.012,-1.8,-0.014,-3.8,64.0,142.7,2.20,3.40,4.60,25.300,68.5,1012.90,0.00,0.0,0.00,0.0,0.0,0.00,0.00,0.0,17.00,26.900,5.69781,1.06800,6.714,36.373,1540.34,5.48920,231927.8,17.0155544,-61.8722687,9.200,78.70,29.95,23.800,-999,-999,69.2,83.8,3.40,-2.30,2.90
"2018-03-19 23:30:00",-9,3.36,2.99,13.17,0.07,11.95,147.12,118.99,1014.10,26.699,16.52,-67.0,0.0,-0.011,-1.6,-0.016,-3.6,62.0,135.0,2.20,3.30,4.30,25.200,69.5,1013.10,0.00,0.0,0.00,0.0,0.0,0.00,0.00,0.0,17.00,26.905,5.69876,1.06200,6.707,36.376,1540.35,5.48964,232927.9,17.0155411,-61.8722687,8.000,73.00,29.95,23.700,-999,-999,50.5,65.1,3.40,2.90,-1.90
"2018-03-19 23:40:00",-9,3.36,3.00,13.17,0.08,11.97,149.85,118.26,1014.13,26.675,16.48,-67.0,0.0,-0.007,-1.5,-0.014,-3.3,85.0,160.4,2.30,3.40,4.80,25.200,68.8,1013.10,0.00,0.0,0.00,0.0,0.0,0.00,0.00,0.0,17.00,26.891,5.69694,1.02600,6.697,36.374,1540.32,5.48932,233927.8,17.0155449,-61.8722763,4.400,75.40,29.94,23.800,-999,-999,75.6,90.2,3.70,-4.00,2.20
"2018-03-19 23:50:00",-9,3.36,2.99,13.16,0.09,11.94,149.51,118.41,1014.18,26.667,16.46,-67.0,0.0,-0.010,-1.1,-0.015,-3.3,76.0,150.3,2.00,2.90,3.60,25.200,66.8,1013.10,0.00,0.0,0.00,0.0,0.0,0.00,0.00,0.0,17.00,26.869,5.69646,1.02300,6.706,36.388,1540.29,5.49115,234927.8,17.0155487,-61.8722687,8.200,74.30,29.95,23.700,-999,-999,72.0,86.6,3.70,0.20,-2.60
"2018-03-20 00:00:00",-9,3.36,2.99,13.16,0.10,11.96,148.88,118.85,1014.20,26.669,16.43,-67.0,0.0,-0.008,-1.9,-0.014,-3.6,82.0,156.9,2.20,3.00,3.90,25.100,69.6,1013.20,0.00,0.0,0.00,0.0,0.0,0.00,0.00,0.0,17.00,26.872,5.69665,1.07600,6.746,36.387,1540.29,5.49103,235927.8,17.0155506,-61.8722687,7.000,74.90,29.95,23.700,-999,-999,70.7,85.3,3.40,-4.00,-0.10
"2018-03-20 00:10:00",-9,3.36,2.99,13.16,0.07,11.95,149.80,119.04,1014.19,26.688,16.45,-69.0,0.0,-0.009,-1.5,-0.013,-3.3,87.0,161.7,2.40,3.60,4.60,25.200,67.3,1013.40,0.00,0.0,0.00,0.0,0.0,0.00,0.00,0.0,17.00,26.872,5.69627,1.01600,6.726,36.385,1540.29,5.49075,927.7,17.0155392,-61.8722687,8.000,74.70,29.96,23.700,-999,-999,76.5,91.1,4.00,4.40,-2.00
"2018-03-20 00:20:00",-9,3.36,2.99,13.14,0.10,11.95,145.85,119.97,1014.21,26.711,16.44,-67.0,0.0,-0.008,-1.9,-0.015,-3.8,88.0,164.1,2.70,3.80,4.80,25.100,70.8,1013.50,0.00,0.0,0.00,0.0,0.0,0.00,0.00,0.0,17.10,26.876,5.69602,1.07100,6.707,36.379,1540.29,5.49004,1927.8,17.0155506,-61.8722687,7.500,76.10,29.96,23.700,-999,-999,85.0,99.6,4.00,-1.10,-3.10
"2018-03-20 00:30:00",-9,3.36,2.99,13.13,0.12,11.96,145.17,118.26,1014.27,26.743,16.43,-67.0,0.0,-0.012,-1.8,-0.017,-4.0,90.0,163.7,2.60,3.50,4.40,25.100,69.9,1013.60,0.00,0.0,0.00,0.0,0.0,0.00,0.00,0.0,17.00,26.872,5.69705,1.05400,6.734,36.390,1540.29,5.49150,2927.8,17.0155392,-61.8722687,6.200,73.70,29.96,23.700,-999,-999,79.4,94.0,3.70,-2.60,-0.80
"2018-03-20 00:40:00",-9,3.36,2.99,13.13,0.12,11.96,148.78,117.77,1014.28,26.778,16.38,-69.0,0.0,-0.007,-1.6,-0.014,-3.5,82.0,155.4,2.70,3.70,4.70,25.100,68.2,1013.70,0.00,0.0,0.00,0.0,0.0,0.00,0.00,0.0,17.00,26.892,5.69746,1.02700,6.797,36.377,1540.33,5.48970,3927.8,17.0155449,-61.8722572,5.700,73.40,29.96,23.600,-999,-999,78.8,93.4,4.20,-0.50,-0.50
"2018-03-20 00:50:00",-9,3.36,2.99,13.11,0.10,11.95,145.31,118.90,1014.35,26.830,16.37,-67.0,0.0,-0.007,-1.6,-0.017,-3.3,86.0,159.3,3.00,3.90,4.70,25.100,70.6,1013.90,0.00,0.0,0.00,0.0,0.0,0.00,0.00,0.0,17.00,26.847,5.69367,1.04100,6.821,36.385,1540.23,5.49087,4927.7,17.0155449,-61.8722687,12.000,73.30,29.99,23.700,-999,-999,81.9,96.5,4.30,1.10,-3.10
"2018-03-20 01:00:00",-9,3.36,2.99,13.14,0.09,11.97,147.80,119.92,1014.41,26.883,16.35,-67.0,0.0,-0.008,-1.2,-0.016,-3.2,92.0,167.6,2.60,3.70,4.60,25.100,69.2,1014.00,0.00,0.0,0.00,0.0,0.0,0.00,0.00,0.0,17.10,26.840,5.69200,1.07400,6.778,36.379,1540.21,5.48998,5927.7,17.0155392,-61.8722572,7.400,75.60,29.97,23.600,-999,-999,87.2,101.8,4.30,-4.70,3.60
"2018-03-20 01:10:00",-9,3.36,2.99,13.12,0.10,11.94,148.19,119.58,1014.46,26.943,16.33,-69.0,0.0,-0.007,-1.7,-0.015,-3.2,90.0,162.6,2.90,3.90,4.80,25.200,69.7,1014.10,0.00,0.0,0.00,0.0,0.0,0.00,0.00,0.0,17.00,26.824,5.68894,1.03900,6.651,36.369,1540.16,5.48874,10927.7,17.0155392,-61.8722572,10.500,72.60,29.98,23.700,-999,-999,82.5,97.1,4.50,0.10,-1.40
"2018-03-20 01:20:00",-9,3.36,2.99,13.16,0.06,11.96,148.14,116.89,1014.51,26.988,16.36,-67.0,0.0,-0.011,-1.5,-0.015,-3.5,91.0,165.3,2.70,3.70,4.70,25.200,68.4,1014.20,0.00,0.0,0.00,0.0,0.0,0.00,0.00,0.0,17.00,26.755,5.68444,1.05100,6.628,36.391,1540.03,5.49165,11927.7,17.0155354,-61.8722572,6.200,74.30,29.97,23.700,-999,-999,84.7,99.3,4.20,0.90,-3.10
"2018-03-20 01:30:00",-9,3.36,2.99,13.14,0.10,11.98,148.10,119.48,1014.52,27.030,16.32,-67.0,0.0,-0.010,-1.3,-0.015,-3.2,87.0,162.4,2.10,3.10,3.90,25.100,68.7,1014.20,0.00,0.0,0.00,0.0,0.0,0.00,0.00,0.0,17.10,26.766,5.68444,1.03800,6.594,36.382,1540.05,5.49051,12927.7,17.0155392,-61.8722572,11.100,75.40,29.99,23.600,-999,-999,83.3,97.9,3.70,0.00,3.50
"2018-03-20 01:40:00",-9,3.36,2.99,13.12,0.09,11.95,150.10,118.26,1014.54,27.035,16.32,-67.0,0.0,-0.008,-1.6,-0.013,-3.0,83.0,157.1,2.50,3.30,4.20,25.000,67.6,1014.30,0.00,0.0,0.00,0.0,0.0,0.00,0.00,0.0,17.10,26.759,5.68413,1.05000,6.551,36.386,1540.03,5.49100,13927.7,17.0155392,-61.8722572,10.000,74.10,29.99,23.600,-999,-999,81.8,96.4,4.00,-1.20,-1.00
"2018-03-20 01:50:00",-9,3.36,2.99,13.13,0.08,11.96,150.44,116.80,1014.59,27.060,16.32,-65.0,0.0,-0.010,-1.7,-0.016,-3.6,92.0,165.1,2.60,3.70,4.60,25.000,67.1,1014.30,0.00,0.0,0.00,0.0,0.0,0.00,0.00,0.0,17.00,26.739,5.68373,1.04900,6.539,36.398,1540.00,5.49267,14927.7,17.0155411,-61.8722572,13.100,73.10,30.00,23.500,-999,-999,83.5,98.1,4.30,-1.40,-0.90
"2018-03-20 02:00:00",-9,3.36,2.99,13.11,0.07,11.95,146.04,118.07,1014.59,27.063,16.32,-67.0,0.0,-0.012,-1.7,-0.015,-3.7,97.0,168.7,2.80,3.70,4.80,25.000,69.7,1014.40,0.00,0.0,0.00,0.0,0.0,0.00,0.00,0.0,17.00,26.739,5.68316,1.06700,6.525,36.394,1540.00,5.49214,15927.8,17.0155392,-61.8722496,10.700,71.70,30.00,23.500,-999,-999,85.5,100.1,4.50,1.40,-3.00
"2018-03-20 02:10:00",-9,3.36,2.99,13.12,0.07,11.95,149.51,118.65,1014.60,27.088,16.33,-67.0,0.0,-0.008,-1.5,-0.013,-3.1,93.0,165.8,2.70,3.80,4.60,25.000,67.7,1014.40,0.00,0.0,0.00,0.0,0.0,0.00,0.00,0.0,17.10,26.740,5.68222,1.08000,6.506,36.387,1539.99,5.49112,20927.7,17.0155506,-61.8722572,8.700,72.80,29.99,23.500,-999,-999,85.1,99.7,4.50,2.70,-4.80
"2018-03-20 02:20:00",-9,3.36,2.99,13.13,0.09,11.95,148.93,118.55,1014.54,27.089,16.35,-67.0,0.0,-0.007,-1.4,-0.011,-3.1,91.0,162.5,2.70,3.90,4.90,24.900,68.3,1014.60,0.00,0.0,0.00,0.0,0.0,0.00,0.00,0.0,17.00,26.729,5.68104,1.01500,6.488,36.387,1539.96,5.49111,21927.6,17.0155315,-61.8722687,10.200,71.50,30.00,23.400,-999,-999,81.4,96.0,4.50,1.80,-0.60
"2018-03-20 02:30:00",-9,3.36,2.98,13.12,0.08,11.96,146.83,118.36,1014.50,27.088,16.36,-67.0,0.0,-0.010,-2.0,-0.011,-3.2,94.0,167.3,2.90,4.00,5.20,24.900,69.5,1014.60,0.00,0.0,0.00,0.0,0.0,0.00,0.00,0.0,17.00,26.726,5.68025,1.05000,6.494,36.384,1539.95,5.49076,22927.7,17.0155506,-61.8722572,7.700,73.30,29.99,23.400,-999,-999,82.9,97.5,4.70,0.40,-3.20
"2018-03-20 02:40:00",-9,3.36,2.99,13.11,0.06,11.94,148.68,118.46,1014.39,27.065,16.41,-65.0,0.0,-0.011,-1.4,-0.014,-3.3,94.0,167.2,3.10,3.80,4.70,24.900,68.6,1014.60,0.00,0.0,0.00,0.0,0.0,0.00,0.00,0.0,17.00,26.711,5.68011,1.03800,6.488,36.395,1539.93,5.49221,23927.6,17.0155449,-61.8722496,7.300,73.20,29.99,23.500,-999,-999,84.9,99.5,4.40,-1.00,1.00
"2018-03-20 02:50:00",-9,3.36,2.98,13.11,0.08,11.94,146.92,118.12,1014.37,27.030,16.43,-67.0,0.0,-0.006,-1.2,-0.013,-3.1,95.0,167.9,2.60,3.80,4.90,24.900,67.1,1014.60,0.00,0.0,0.00,0.0,0.0,0.00,0.00,0.0,17.00,26.704,5.67884,1.06000,6.475,36.391,1539.91,5.49171,24927.6,17.0155392,-61.8722572,6.700,72.90,29.99,23.400,-999,-999,80.6,95.2,4.50,-0.70,3.40
"2018-03-20 03:00:00",-9,3.36,2.99,13.10,0.10,11.95,149.71,120.31,1014.35,27.023,16.45,-67.0,0.0,-0.008,-1.7,-0.015,-3.4,89.0,162.0,2.80,3.90,5.10,24.900,66.9,1014.60,0.00,0.0,0.00,0.0,0.0,0.00,0.00,0.0,17.00,26.698,5.67819,1.00800,6.462,36.391,1539.90,5.49174,25927.8,17.0155296,-61.8722572,5.300,73.00,29.98,23.500,-999,-999,80.5,95.1,4.30,-1.00,-1.70
"2018-03-20 03:10:00",-9,3.36,2.98,13.06,0.08,11.94,148.34,118.12,1014.28,27.023,16.45,-67.0,0.0,-0.008,-1.7,-0.014,-3.3,85.0,158.2,2.30,3.90,5.20,24.900,67.3,1014.60,0.00,0.0,0.00,0.0,0.0,0.00,0.00,0.0,17.00,26.706,5.67864,1.05300,6.477,36.388,1539.91,5.49128,30927.8,17.0155258,-61.8722572,8.300,73.20,29.99,23.400,-999,-999,82.5,97.1,4.20,-6.20,2.80
"2018-03-20 03:20:00",-9,3.36,2.98,13.12,0.08,11.96,149.71,120.07,1014.29,27.024,16.47,-65.0,0.0,-0.010,-1.3,-0.014,-4.0,86.0,159.3,2.50,3.70,4.90,24.900,70.9,1014.60,0.00,0.0,0.00,0.0,0.0,0.00,0.00,0.0,17.00,26.696,5.67829,1.02000,6.478,36.393,1539.90,5.49201,31927.7,17.0155315,-61.8722572,9.000,73.30,29.99,23.400,-999,-999,81.4,96.0,4.20,-3.10,1.30
"2018-03-20 03:30:00",-9,3.36,2.99,13.13,0.08,11.95,149.07,116.41,1014.28,27.030,16.46,-69.0,0.0,-0.007,-1.1,-0.014,-3.5,88.0,160.5,3.30,4.40,5.40,24.900,69.3,1014.60,0.00,0.0,0.00,0.0,0.0,0.00,0.00,0.0,17.00,26.687,5.67729,1.01100,6.462,36.393,1539.88,5.49197,32927.7,17.0155296,-61.8722687,9.900,72.50,30.00,23.400,-999,-999,78.3,92.9,4.70,0.50,-2.00
"2018-03-20 03:40:00",-9,3.36,2.98,13.11,0.10,11.93,145.07,119.63,1014.33,27.036,16.48,-67.0,0.0,-0.009,-1.6,-0.014,-3.5,90.0,161.8,2.70,4.10,5.30,24.800,69.0,1014.50,0.00,0.0,0.00,0.0,0.0,0.00,0.00,0.0,17.00,26.731,5.68209,1.01900,6.504,36.393,1539.98,5.49192,33927.6,17.0155315,-61.8722572,8.400,71.80,29.99,23.300,-999,-999,78.2,92.8,4.70,2.90,1.70
"2018-03-20 03:50:00",-9,3.36,2.99,13.11,0.08,11.93,149.76,118.90,1014.33,27.067,16.45,-67.0,0.0,-0.009,-2.0,-0.014,-2.4,84.0,156.6,2.10,3.30,4.40,24.800,71.0,1014.50,0.00,0.0,0.00,0.0,0.0,0.00,0.00,0.0,17.00,26.746,5.68294,1.06600,6.523,36.387,1540.01,5.49119,34927.6,17.0155392,-61.8722687,11.700,72.60,30.01,23.300,-999,-999,70.0,84.6,4.10,-5.40,1.20
"2018-03-20 04:00:00",-9,3.36,2.98,13.11,0.09,11.94,148.83,118.16,1014.14,27.053,16.47,-65.0,0.0,-0.009,-1.6,-0.014,-3.5,95.0,166.9,2.10,3.00,4.10,24.800,69.8,1014.40,0.00,0.0,0.00,0.0,0.0,0.00,0.00,0.0,17.10,26.738,5.68247,1.06100,6.514,36.390,1539.99,5.49156,35927.6,17.0155392,-61.8722496,6.800,71.90,29.98,23.300,-999,-999,86.8,101.4,3.60,-7.80,2.80
"2018-03-20 04:10:00",-9,3.36,2.99,13.12,0.07,11.95,147.22,120.95,1014.03,27.017,16.48,-67.0,0.0,-0.012,-1.0,-0.015,-3.3,93.0,166.6,2.60,3.60,4.90,24.800,72.0,1014.40,0.00,0.0,0.00,0.0,0.0,0.00,0.00,0.0,17.00,26.770,5.68553,1.01400,6.552,36.387,1540.06,5.49118,40927.7,17.0155392,-61.8722496,7.800,73.60,29.98,23.400,-999,-999,78.6,93.2,3.70,-2.40,2.90
"2018-03-20 04:20:00",-9,3.36,2.99,13.11,0.07,11.93,149.56,119.19,1014.04,26.994,16.49,-67.0,0.0,-0.009,-1.9,-0.014,-3.5,88.0,162.1,2.30,3.40,4.10,24.800,69.8,1014.30,0.00,0.0,0.00,0.0,0.0,0.00,0.00,0.0,17.00,26.817,5.69056,1.05900,6.601,36.386,1540.17,5.49102,41927.6,17.0155392,-61.8722496,8.800,74.10,29.99,23.400,-999,-999,81.7,96.3,4.10,-1.50,1.30
"2018-03-20 04:30:00",-9,3.36,2.99,13.11,0.09,11.95,149.41,118.99,1014.04,26.958,16.48,-67.0,0.0,-0.008,-1.7,-0.014,-3.4,69.0,140.9,2.00,3.10,4.10,24.800,71.6,1014.20,0.00,0.0,0.00,0.0,0.0,0.00,0.00,0.0,17.00,26.829,5.69262,1.04600,6.581,36.392,1540.20,5.49179,42927.6,17.0155449,-61.8722572,8.700,71.90,29.98,23.400,-999,-999,82.8,97.4,4.10,-0.50,0.70
"2018-03-20 04:40:00",-9,3.36,2.99,13.08,0.09,11.97,146.44,117.92,1014.08,26.940,16.48,-67.0,0.0,-0.009,-1.7,-0.012,-2.8,80.0,153.2,1.90,3.30,4.50,24.800,71.1,1014.10,0.00,0.0,0.00,0.0,0.0,0.00,0.00,0.0,17.00,26.827,5.69266,1.05900,6.546,36.393,1540.20,5.49195,43927.6,17.0155449,-61.8722496,6.900,73.20,29.98,23.400,-999,-999,79.5,94.1,3.90,-2.90,2.00
"2018-03-20 04:50:00",-9,3.36,2.98,13.10,0.10,11.98,151.32,119.97,1014.07,26.945,16.46,-67.0,0.0,-0.010,-1.9,-0.013,-3.3,85.0,158.0,2.30,3.10,3.90,24.900,70.4,1014.10,0.00,0.0,0.00,0.0,0.0,0.00,0.00,0.0,17.00,26.806,5.69036,1.03300,6.520,36.393,1540.15,5.49197,44927.6,17.0155411,-61.8722496,9.400,73.00,29.98,23.400,-999,-999,79.9,94.5,3.70,2.40,-2.90
"2018-03-20 05:00:00",-9,3.36,2.98,13.08,0.11,11.96,149.76,118.90,1014.08,26.938,16.47,-67.0,0.0,-0.013,-1.5,-0.014,-3.2,88.0,160.7,2.20,3.20,4.20,24.800,72.3,1013.90,0.00,0.0,0.00,0.0,0.0,0.00,0.00,0.0,17.00,26.793,5.68900,1.03300,6.523,36.394,1540.12,5.49203,45927.6,17.0155392,-61.8722496,5.100,72.70,29.96,23.300,-999,-999,82.2,96.8,3.90,-1.60,1.20
"2018-03-20 05:10:00",-9,3.36,2.98,13.11,0.08,11.98,150.34,118.26,1014.07,26.921,16.49,-67.0,0.0,-0.007,-1.2,-0.014,-3.3,82.0,153.4,1.90,2.90,3.60,24.700,75.2,1013.90,0.00,0.0,0.00,0.0,0.0,0.00,0.00,0.0,17.00,26.781,5.68747,1.02400,6.544,36.392,1540.09,5.49186,50927.5,17.0155411,-61.8722496,5.800,71.40,29.96,23.300,-999,-999,78.4,93.0,3.00,0.40,-1.10
"2018-03-20 05:20:00",-9,3.36,2.98,13.10,0.12,11.94,150.39,119.58,1014.13,26.910,16.51,-67.0,0.0,-0.010,-1.7,-0.016,-2.0,91.0,163.1,2.00,2.90,4.00,24.800,72.1,1013.80,0.00,0.0,0.00,0.0,0.0,0.00,0.00,0.0,17.00,26.774,5.68698,1.02500,6.524,36.394,1540.08,5.49209,51927.7,17.0155315,-61.8722496,8.600,72.10,29.97,23.300,-999,-999,77.3,91.9,3.00,-1.20,-1.00
"2018-03-20 05:30:00",-9,3.36,2.98,13.09,0.07,11.96,150.00,118.46,1014.11,26.907,16.52,-67.0,0.0,-0.010,-1.6,-0.013,-2.8,91.0,163.6,1.60,2.60,3.50,24.800,72.2,1013.60,0.00,0.0,0.00,0.0,0.0,0.00,0.00,0.0,17.00,26.768,5.68667,1.02900,6.558,36.397,1540.06,5.49250,52927.7,17.0155315,-61.8722496,1.700,72.60,29.94,23.300,-999,-999,71.5,86.1,2.80,-0.70,1.10
"2018-03-20 05:40:00",-9,3.36,2.98,13.10,0.09,11.93,147.22,117.72,1014.05,26.894,16.54,-65.0,0.0,-0.010,-1.2,-0.012,-3.4,65.0,138.2,2.10,2.90,3.70,24.700,70.2,1013.50,0.00,0.0,0.00,0.0,0.0,0.00,0.00,0.0,17.00,26.712,5.67973,1.01200,6.565,36.391,1539.93,5.49174,53927.6,17.0155315,-61.8722572,8.900,73.20,29.97,23.200,-999,-999,69.7,84.3,3.60,0.30,1.60
"2018-03-20 05:50:00",-9,3.36,2.98,13.08,0.11,11.95,149.37,118.70,1013.99,26.851,16.57,-65.0,0.0,-0.010,-1.1,-0.011,-2.8,79.0,152.1,1.80,2.80,3.60,24.500,71.9,1013.50,0.00,0.0,0.00,0.0,0.0,0.00,0.00,0.0,17.00,26.692,5.67724,1.03600,6.544,36.389,1539.88,5.49144,54927.5,17.0155163,-61.8722496,9.100,73.10,29.97,23.100,-999,-999,73.9,88.5,3.10,-2.50,1.20
"2018-03-20 06:00:00",-9,3.36,2.98,13.08,0.06,11.96,148.68,119.48,1013.94,26.812,16.58,-67.0,0.0,-0.010,-1.3,-0.012,-2.5,74.0,148.9,1.60,2.30,3.40,24.400,72.0,1013.50,0.00,0.0,0.00,0.0,0.0,0.00,0.00,0.0,17.00,26.687,5.67643,1.01900,6.539,36.386,1539.87,5.49111,55927.5,17.0155125,-61.8722420,7.300,74.90,29.96,23.000,-999,-999,64.6,79.2,2.80,-0.40,-0.70
"2018-03-20 06:10:00",-9,3.36,2.98,13.06,0.09,11.96,150.59,118.02,1013.95,26.790,16.61,-67.0,0.0,-0.011,-1.3,-0.010,-2.4,77.0,150.2,2.20,3.10,3.80,24.500,72.0,1013.40,0.00,0.0,0.00,0.0,0.0,0.00,0.00,0.0,17.00,26.696,5.67700,1.00400,6.536,36.383,1539.89,5.49074,60927.5,17.0155296,-61.8722420,7.400,73.20,29.95,23.100,-999,-999,76.0,90.6,3.70,0.00,-2.70
"2018-03-20 06:20:00",-9,3.36,2.98,13.09,0.09,11.95,150.59,117.63,1013.93,26.796,16.59,-67.0,0.0,-0.008,-1.4,-0.012,-3.4,82.0,154.8,1.90,2.90,3.60,24.700,70.6,1013.30,0.00,0.0,0.00,0.0,0.0,0.00,0.00,0.0,17.00,26.711,5.67862,1.05900,6.539,36.384,1539.92,5.49078,61927.5,17.0155258,-61.8722496,6.000,72.80,29.95,23.200,-999,-999,71.9,86.5,3.90,3.60,-3.90
"2018-03-20 06:30:00",-9,3.37,2.98,13.09,0.09,11.92,148.29,117.29,1013.92,26.817,16.59,-67.0,0.0,-0.007,-1.3,-0.011,-2.7,85.0,158.2,2.00,3.00,3.80,24.700,69.8,1013.20,0.00,0.0,0.00,0.0,0.0,0.00,0.00,0.0,17.10,26.714,5.67919,1.03100,6.544,36.385,1539.93,5.49099,62927.6,17.0155163,-61.8722572,5.100,73.20,29.94,23.300,-999,-999,75.3,89.9,3.40,0.40,1.20
"2018-03-20 06:40:00",-9,3.36,2.98,13.08,0.07,11.96,148.05,118.70,1013.94,26.830,16.58,-65.0,0.0,-0.009,-1.6,-0.012,-3.1,81.0,153.1,1.80,2.40,3.20,24.500,71.7,1013.10,0.00,0.0,0.00,0.0,0.0,0.00,0.00,0.0,17.00,26.733,5.68146,1.05300,6.567,36.387,1539.97,5.49114,63927.7,17.0155163,-61.8722572,11.000,72.10,29.96,23.000,-999,-999,68.3,82.9,2.70,2.60,-1.20
"2018-03-20 06:50:00",-9,3.36,2.98,13.11,0.08,11.95,147.90,119.73,1013.96,26.823,16.59,-67.0,0.0,-0.008,-1.6,-0.010,-3.0,53.0,127.5,2.00,2.60,3.40,24.600,73.7,1013.00,0.00,0.0,0.00,0.0,0.0,0.00,0.00,0.0,17.00,26.749,5.68319,1.02000,6.592,36.386,1540.01,5.49106,64927.6,17.0155106,-61.8722420,9.500,74.50,29.95,23.000,-999,-999,64.8,79.4,3.30,1.50,-1.80
"2018-03-20 07:00:00",-9,3.36,2.98,13.08,0.09,11.95,145.85,118.70,1013.94,26.785,16.60,-67.0,0.0,-0.007,-2.0,-0.010,-2.9,65.0,140.7,1.40,2.20,3.00,24.300,74.1,1013.00,0.00,0.0,0.00,0.0,0.0,0.00,0.00,0.0,17.00,26.779,5.68661,1.03400,6.637,36.387,1540.08,5.49119,65927.4,17.0155163,-61.8722420,7.900,75.70,29.94,22.900,-999,-999,60.9,75.5,2.50,1.60,-0.40
"2018-03-20 07:10:00",-9,3.36,2.98,13.10,0.10,11.95,148.73,116.80,1013.94,26.757,16.62,-65.0,0.0,-0.007,-1.7,-0.008,-2.6,86.0,158.6,2.30,3.00,3.80,24.500,70.2,1012.90,0.00,0.0,0.00,0.0,0.0,0.00,0.00,0.0,17.00,26.759,5.68436,1.01000,6.599,36.387,1540.03,5.49119,70927.5,17.0155220,-61.8722420,4.800,72.60,29.93,23.000,-999,-999,77.5,92.1,3.50,-0.50,3.80
"2018-03-20 07:20:00",-9,3.36,2.98,13.10,0.09,11.95,147.85,117.48,1013.90,26.788,16.61,-67.0,0.0,-0.008,-1.6,-0.012,-3.0,82.0,157.5,2.50,3.30,4.00,24.800,69.2,1012.80,0.00,0.0,0.00,0.0,0.0,0.00,0.00,0.0,17.00,26.758,5.68439,1.04000,6.603,36.388,1540.03,5.49131,71927.5,17.0155163,-61.8722420,6.300,75.50,29.94,23.200,-999,-999,74.8,89.4,4.00,0.80,-2.20
"2018-03-20 07:30:00",-9,3.36,2.98,13.08,0.10,11.95,148.73,117.72,1013.95,26.821,16.59,-67.0,0.0,-0.008,-1.6,-0.014,-3.2,88.0,163.6,2.00,3.20,4.40,24.600,69.5,1012.80,0.00,0.0,0.00,0.0,0.0,0.00,0.00,0.0,17.00,26.756,5.68398,1.04100,6.568,36.387,1540.03,5.49109,72927.5,17.0155106,-61.8722420,8.100,75.60,29.94,23.200,-999,-999,77.1,91.7,3.60,-0.30,-1.30
"2018-03-20 07:40:00",-9,3.36,2.98,13.10,0.08,11.94,150.05,118.55,1013.98,26.838,16.59,-69.0,0.0,-0.007,-1.3,-0.013,-3.1,85.0,159.5,2.10,3.30,4.70,24.600,69.8,1012.90,0.00,0.0,0.00,0.0,0.0,0.00,0.00,0.0,17.10,26.739,5.68172,0.99700,6.542,36.384,1539.98,5.49081,73927.5,17.0155201,-61.8722305,6.300,74.50,29.94,23.200,-999,-999,81.4,96.0,4.00,-0.40,-0.20
"2018-03-20 07:50:00",-9,3.36,2.98,13.08,0.08,11.95,150.83,116.50,1014.00,26.856,16.58,-65.0,0.0,-0.008,-1.2,-0.013,-2.9,87.0,161.9,2.60,3.80,5.30,24.700,70.0,1012.90,0.00,0.0,0.00,0.0,0.0,0.00,0.00,0.0,17.00,26.730,5.68101,1.02500,6.532,36.386,1539.97,5.49098,74927.6,17.0155106,-61.8722420,5.700,74.90,29.93,23.100,-999,-999,78.0,92.6,4.40,1.40,-6.10
"2018-03-20 08:00:00",-9,3.36,2.98,13.09,0.07,11.95,145.85,114.50,1014.03,26.887,16.56,-67.0,0.0,-0.010,-1.4,-0.013,-3.2,86.0,158.7,2.50,3.70,4.70,24.600,71.4,1012.90,0.00,0.0,0.00,0.0,0.0,0.00,0.00,0.0,17.00,26.720,5.67999,1.03200,6.505,36.386,1539.94,5.49111,75927.6,17.0155163,-61.8722305,4.300,72.70,29.93,23.100,-999,-999,75.2,89.8,3.90,-2.40,0.70
"2018-03-20 08:10:00",-9,3.36,2.98,13.08,0.10,11.95,145.95,117.77,1014.05,26.914,16.54,-67.0,0.0,-0.010,-1.7,-0.011,-2.8,83.0,157.1,2.60,3.70,4.80,24.600,70.6,1013.00,0.00,0.0,0.00,0.0,0.0,0.00,0.00,0.0,17.00,26.710,5.67921,1.00600,6.490,36.389,1539.92,5.49144,80927.6,17.0155163,-61.8722420,7.800,74.10,29.95,23.100,-999,-999,75.2,89.8,3.70,7.30,-6.10
"2018-03-20 08:20:00",-9,3.36,2.98,13.07,0.10,11.96,149.32,120.46,1014.03,26.920,16.54,-65.0,0.0,-0.011,-1.7,-0.013,-2.8,82.0,157.1,2.30,3.20,4.10,24.600,69.6,1013.10,0.00,0.0,0.00,0.0,0.0,0.00,0.00,0.0,17.00,26.718,5.67966,1.01100,6.509,36.385,1539.94,5.49098,81927.5,17.0155220,-61.8722420,7.300,75.10,29.94,23.100,-999,-999,75.2,89.8,4.50,1.20,-6.00
"2018-03-20 08:30:00",-9,3.36,2.98,13.10,0.08,11.94,147.75,117.09,1014.08,26.925,16.54,-67.0,0.0,-0.008,-1.7,-0.012,-3.3,95.0,170.8,2.00,3.60,5.20,24.700,71.9,1013.20,0.00,0.0,0.00,0.0,0.0,0.00,0.00,0.0,17.00,26.715,5.67958,1.02500,6.502,36.388,1539.93,5.49128,82927.4,17.0155106,-61.8722305,6.300,75.80,29.95,23.200,-999,-999,87.3,101.9,4.10,2.60,-11.20
"2018-03-20 08:40:00",-9,3.36,2.98,13.10,0.10,11.93,147.56,118.36,1014.14,26.957,16.52,-67.0,0.0,-0.006,-1.7,-0.011,-3.3,88.0,161.5,2.20,3.50,4.90,24.700,72.0,1013.20,0.00,0.0,0.00,0.0,0.0,0.00,0.00,0.0,17.00,26.713,5.67922,1.09600,6.511,36.386,1539.93,5.49110,83927.4,17.0155220,-61.8722420,8.900,73.50,29.95,23.200,-999,-999,79.5,94.1,4.10,0.00,3.50
"2018-03-20 08:50:00",-9,3.36,2.98,13.11,0.09,11.97,149.66,116.11,1014.17,26.983,16.52,-67.0,0.0,-0.007,-1.6,-0.014,-3.3,93.0,164.9,2.80,3.90,5.20,24.700,71.5,1013.20,0.00,0.0,0.00,0.0,0.0,0.00,0.00,0.0,17.00,26.706,5.67858,1.04100,6.508,36.387,1539.91,5.49126,84927.3,17.0155106,-61.8722305,6.800,71.90,29.95,23.300,-999,-999,82.0,96.6,3.70,0.00,2.10
"2018-03-20 09:00:00",-9,3.36,2.98,13.03,0.12,11.97,150.88,119.68,1014.16,27.021,16.50,-67.0,0.0,-0.008,-1.5,-0.011,-3.1,98.0,171.3,1.50,3.40,5.40,24.800,72.0,1013.20,0.00,0.0,0.00,0.0,0.0,0.00,0.00,0.0,17.00,26.695,5.67808,1.01800,6.506,36.392,1539.89,5.49193,85927.5,17.0155220,-61.8722420,10.700,73.30,29.96,23.300,-999,-999,84.2,98.8,3.80,-6.60,3.30
"2018-03-20 09:10:00",-9,3.36,2.98,13.06,0.07,11.93,148.83,118.36,1014.28,27.054,16.51,-67.0,0.0,-0.011,-1.8,-0.015,-3.2,74.0,147.3,2.60,3.90,5.10,25.000,75.5,1013.30,0.00,0.0,0.00,0.0,0.0,0.00,0.00,0.0,17.00,26.701,5.67803,1.06200,6.498,36.388,1539.90,5.49128,90927.4,17.0155220,-61.8722496,9.900,73.30,29.96,23.600,-999,-999,75.3,89.9,4.00,0.50,2.30
"2018-03-20 09:20:00",-9,3.36,2.98,13.09,0.09,11.96,149.61,118.46,1014.31,27.111,16.47,-67.0,0.0,-0.011,-1.5,-0.012,-3.5,96.0,167.4,2.30,4.60,6.50,25.000,72.6,1013.40,0.00,0.0,0.00,0.0,0.0,0.00,0.00,0.0,17.00,26.689,5.67758,1.00800,6.500,36.393,1539.88,5.49204,91927.5,17.0155258,-61.8722496,9.300,71.40,29.96,23.600,-999,-999,67.7,82.3,4.20,-5.60,2.60
"2018-03-20 09:30:00",-9,3.36,2.98,13.06,0.09,11.95,150.88,117.38,1014.25,27.189,16.43,-67.0,0.0,-0.009,-1.5,-0.018,-3.6,80.0,151.0,2.70,4.10,5.30,25.300,72.1,1013.50,0.00,0.0,0.00,0.0,0.0,0.00,0.00,0.0,17.00,26.682,5.67680,1.01000,6.508,36.393,1539.86,5.49204,92927.5,17.0155315,-61.8722572,7.300,71.00,29.96,23.800,-999,-999,83.2,97.8,5.80,3.70,-4.40
"2018-03-20 09:40:00",-9,3.36,2.98,13.06,0.10,11.94,148.05,119.29,1014.26,27.208,16.43,-67.0,0.0,-0.009,-1.8,-0.013,-3.9,87.0,160.4,2.70,4.00,6.30,25.100,69.6,1013.70,0.00,0.0,0.00,0.0,0.0,0.00,0.00,0.0,17.00,26.691,5.67741,1.08800,6.481,36.390,1539.88,5.49163,93927.4,17.0155220,-61.8722572,7.200,73.40,29.96,23.800,-999,-999,92.0,106.6,5.80,6.80,-9.20
"2018-03-20 09:50:00",-9,3.36,2.98,13.07,0.10,11.96,151.27,119.63,1014.15,27.204,16.43,-67.0,0.0,-0.009,-1.8,-0.012,-4.1,88.0,159.0,3.40,4.50,6.10,25.100,71.8,1013.80,0.00,0.0,0.00,0.0,0.0,0.00,0.00,0.0,17.00,26.674,5.67554,1.02200,6.423,36.390,1539.84,5.49165,94927.5,17.0155258,-61.8722572,9.200,71.00,29.98,23.800,-999,-999,66.5,81.1,4.90,0.40,-0.80
"2018-03-20 10:00:00",-9,3.36,2.98,13.06,0.05,11.96,150.34,119.34,1014.20,27.227,16.42,-67.0,0.0,-0.002,-1.0,-0.010,-2.8,92.0,165.5,2.90,4.10,5.60,25.200,69.8,1013.90,0.00,0.0,0.00,0.0,0.0,0.00,0.00,0.0,17.00,26.674,5.67550,1.02400,6.417,36.390,1539.84,5.49166,95927.5,17.0155354,-61.8722572,7.700,73.50,29.97,23.800,-999,-999,77.6,92.2,4.30,-0.50,-0.70
"2018-03-20 10:10:00",-9,3.36,2.98,13.05,0.09,11.97,150.10,119.04,1014.20,27.233,16.41,-67.0,0.0,0.019,3.7,0.023,5.4,91.0,165.6,1.70,3.50,5.40,25.000,72.2,1013.90,0.00,0.0,0.00,0.0,0.0,0.00,0.00,0.0,17.00,26.676,5.67478,1.07100,6.382,36.383,1539.84,5.49071,100927.5,17.0155354,-61.8722572,9.000,74.60,29.98,23.700,-999,-999,87.6,102.2,4.40,6.20,-4.60
"2018-03-20 10:20:00",-9,3.36,2.98,13.07,0.09,11.97,148.34,118.80,1014.19,27.215,16.44,-67.0,0.0,0.097,13.9,0.104,25.3,95.0,168.7,2.20,3.80,5.30,25.000,72.2,1014.00,0.00,0.0,0.00,0.0,0.0,0.00,0.00,0.0,17.00,26.657,5.67375,1.05200,6.381,36.390,1539.81,5.49170,101927.5,17.0155487,-61.8722801,5.600,73.70,29.96,23.600,-999,-999,81.7,96.3,4.20,2.50,-2.00
"2018-03-20 10:30:00",-9,3.36,2.98,13.17,0.08,11.95,148.58,118.12,1014.16,27.136,16.51,-67.0,0.0,0.173,26.1,0.203,49.2,90.0,164.8,2.70,4.20,5.50,25.000,72.0,1014.20,0.00,0.0,0.00,0.0,0.0,0.00,0.00,0.0,17.00,26.667,5.67412,1.03100,6.366,36.386,1539.82,5.49107,102927.5,17.0155449,-61.8722763,4.700,74.80,29.97,23.700,-999,-999,90.8,105.4,4.70,-4.70,1.70
"2018-03-20 10:40:00",-9,3.36,2.98,13.22,0.07,11.96,149.17,116.50,1014.04,27.103,16.56,-67.0,0.0,0.281,41.8,0.314,84.0,98.0,173.4,3.40,5.00,6.30,25.100,73.7,1014.30,0.00,0.0,0.00,0.0,0.0,0.00,0.00,0.0,17.00,26.663,5.67412,1.04400,6.380,36.388,1539.82,5.49142,103927.4,17.0155487,-61.8722763,8.400,75.40,29.99,23.800,-999,-999,95.0,109.6,5.40,-3.50,0.00
"2018-03-20 10:50:00",-9,3.36,2.98,13.65,0.09,11.94,136.72,119.14,1014.35,27.159,16.68,-67.0,0.0,0.901,235.1,0.931,248.2,82.0,159.3,3.20,4.00,4.90,25.100,71.1,1014.40,0.00,0.0,0.00,0.0,0.0,0.00,0.00,0.0,17.00,26.662,5.67401,1.03200,6.390,36.389,1539.81,5.49145,104927.4,17.0155506,-61.8722878,9.600,77.30,30.00,24.300,-999,-999,87.2,101.8,4.30,2.90,-3.50
"2018-03-20 11:00:00",-9,3.36,2.98,13.68,0.07,11.95,141.02,117.43,1014.83,27.270,16.77,-67.0,0.0,1.421,180.2,1.056,251.6,84.0,159.0,3.20,4.60,5.70,25.200,71.6,1014.50,0.00,0.0,0.00,0.0,0.0,0.00,0.00,0.0,17.00,26.647,5.67323,1.05600,6.437,36.395,1539.79,5.49227,105927.3,17.0155506,-61.8722763,6.400,75.00,29.99,24.600,-999,-999,83.2,97.8,4.80,-0.50,0.60
"2018-03-20 11:10:00",-9,3.36,2.98,13.69,0.10,11.94,140.62,119.04,1015.33,27.465,16.76,-67.0,0.0,1.224,282.2,1.846,445.0,90.0,165.0,1.70,3.60,4.90,25.200,72.7,1014.70,0.00,0.0,0.00,0.0,0.0,0.00,0.00,0.0,17.00,26.661,5.67410,1.04600,6.441,36.390,1539.81,5.49165,110927.4,17.0155506,-61.8722687,10.800,75.00,30.00,24.800,-999,-999,82.9,97.5,4.20,1.90,-7.10
"2018-03-20 11:20:00",-9,3.36,2.98,13.73,0.07,11.94,133.30,119.29,1015.75,27.702,16.76,-67.0,0.0,1.730,502.7,1.595,407.0,101.0,176.9,3.90,5.80,7.80,25.400,66.9,1014.80,0.00,0.0,0.00,0.0,0.0,0.00,0.00,0.0,17.00,26.654,5.67390,1.07300,6.433,36.394,1539.80,5.49217,111927.3,17.0155582,-61.8722687,4.500,75.90,29.98,24.900,-999,-999,90.5,105.1,5.80,-4.30,-4.10
"2018-03-20 11:30:00",-9,3.36,2.98,14.35,0.07,11.94,134.13,118.95,1016.03,27.861,16.77,-69.0,0.0,3.286,536.9,2.216,555.4,111.0,188.1,3.90,5.10,6.60,25.500,70.4,1015.00,0.00,0.0,0.00,0.0,0.0,0.00,0.00,0.0,17.00,26.651,5.67341,1.04800,6.425,36.393,1539.79,5.49206,112927.4,17.0155602,-61.8722687,6.600,77.10,29.99,25.000,-999,-999,91.2,105.8,5.00,-0.60,0.20
"2018-03-20 11:40:00",-9,3.36,2.98,13.74,0.10,11.95,141.26,117.82,1016.52,28.089,16.78,-69.0,0.0,3.242,627.1,2.803,600.4,107.0,186.2,4.60,6.30,8.30,25.600,72.1,1015.00,0.00,0.0,0.00,0.0,0.0,0.00,0.00,0.0,17.00,26.645,5.67222,1.09900,6.401,36.390,1539.78,5.49160,113927.4,17.0155602,-61.8722763,6.000,79.20,29.99,25.100,-999,-999,99.6,114.2,6.80,3.40,-1.90
"2018-03-20 11:50:00",-9,3.36,2.98,13.74,0.09,11.94,139.36,117.77,1016.64,28.195,16.83,-69.0,0.0,3.577,356.3,2.616,699.9,119.0,200.3,4.80,6.40,8.80,25.600,68.4,1015.10,0.00,0.0,0.00,0.0,0.0,0.00,0.00,0.0,17.00,26.641,5.67214,1.06100,6.383,36.391,1539.77,5.49187,114927.4,17.0155602,-61.8722801,8.400,81.30,30.01,25.200,-999,-999,117.4,132.0,7.20,-2.20,-0.40
"2018-03-20 12:00:00",-9,3.36,2.98,13.77,0.09,11.96,141.70,118.31,1016.61,28.220,16.91,-69.0,0.0,3.617,673.4,3.747,872.4,113.0,192.6,4.90,6.40,8.40,25.700,65.6,1015.30,0.00,0.0,0.00,0.0,0.0,0.00,0.00,0.0,17.00,26.646,5.67248,1.03700,6.382,36.390,1539.78,5.49165,115927.2,17.0155640,-61.8722801,8.000,79.60,30.01,25.200,-999,-999,109.4,124.0,7.60,6.20,-3.10
"2018-03-20 12:10:00",-9,3.36,2.98,14.36,0.09,11.93,137.70,117.53,1016.69,28.134,17.02,-71.0,0.0,5.016,752.9,3.979,862.4,114.0,195.7,4.50,6.30,9.00,25.700,67.4,1015.40,0.00,0.0,0.00,0.0,0.0,0.00,0.00,0.0,17.00,26.596,5.66771,1.03400,6.338,36.395,1539.67,5.49236,120927.4,17.0155735,-61.8722878,7.900,81.70,30.01,25.200,-999,-999,111.4,126.0,7.10,0.20,-3.80
"2018-03-20 12:20:00",-9,3.36,2.98,13.83,0.08,11.94,139.94,117.68,1016.86,28.169,17.04,-69.0,0.0,4.288,986.4,4.570,981.4,115.0,196.9,4.60,6.50,8.30,25.700,71.8,1015.60,0.00,0.0,0.00,0.0,0.0,0.00,0.00,0.0,17.00,26.583,5.66607,1.04900,6.251,36.393,1539.64,5.49214,121927.4,17.0155735,-61.8722878,11.800,81.90,30.03,25.300,-999,-999,113.7,128.3,6.80,3.20,-0.60
"2018-03-20 12:30:00",-9,3.36,2.98,13.79,0.10,11.94,140.09,118.80,1017.12,28.240,17.04,-69.0,0.0,3.734,687.9,4.842,1138.5,121.0,200.0,4.50,6.50,8.60,25.700,70.6,1015.70,0.00,0.0,0.00,0.0,0.0,0.00,0.00,0.0,17.00,26.563,5.66417,1.04500,6.202,36.395,1539.59,5.49244,122927.4,17.0155602,-61.8722878,12.000,79.00,30.04,25.200,-999,-999,102.8,117.4,6.80,5.90,0.50
"2018-03-20 12:40:00",-9,3.36,2.98,14.13,0.08,11.94,139.26,120.41,1017.26,28.341,17.00,-67.0,0.0,5.025,833.6,4.821,1148.6,122.0,201.8,5.60,7.10,8.80,25.700,69.2,1015.80,0.00,0.0,0.00,0.0,0.0,0.00,0.00,0.0,17.00,26.523,5.65997,1.05500,6.068,36.397,1539.50,5.49271,123927.4,17.0155602,-61.8722878,11.400,79.80,30.03,25.100,-999,-999,115.7,130.3,8.20,0.00,-2.90
"2018-03-20 12:50:00",-9,3.36,2.98,13.55,0.10,11.94,142.68,117.43,1017.39,28.373,17.00,-69.0,0.0,4.104,494.8,5.421,1367.4,122.0,200.1,5.40,7.30,9.30,25.700,69.2,1015.90,0.00,0.0,0.00,0.0,0.0,0.00,0.00,0.0,17.00,26.482,5.65613,1.09300,5.906,36.401,1539.42,5.49327,124927.4,17.0155602,-61.8722878,11.600,78.10,30.04,25.200,-999,-999,121.7,136.3,7.90,-3.80,0.30
"2018-03-20 13:00:00",-9,3.36,2.98,13.48,0.09,11.96,145.90,118.41,1017.35,28.419,16.97,-69.0,0.0,2.310,401.6,4.992,1267.4,120.0,200.8,4.50,6.20,8.50,25.700,68.8,1016.00,0.00,0.0,0.00,0.0,0.0,0.00,0.00,0.0,17.00,26.428,5.65081,0.98500,5.757,36.406,1539.29,5.49394,125927.4,17.0155678,-61.8722801,10.300,80.80,30.04,25.200,-999,-999,122.8,137.4,7.70,1.00,1.50
"2018-03-20 13:10:00",-9,3.36,2.99,13.50,0.10,11.96,144.48,117.58,1017.79,28.552,16.93,-67.0,0.0,5.020,777.6,5.673,1314.3,123.0,200.2,5.10,7.30,9.20,25.700,69.4,1016.20,0.00,0.0,0.00,0.0,0.0,0.00,0.00,0.0,17.00,26.417,5.64985,1.09900,5.776,36.407,1539.27,5.49413,130927.3,17.0155773,-61.8722801,12.400,77.20,30.05,25.100,-999,-999,114.8,129.4,8.00,1.70,-1.80
"2018-03-20 13:20:00",-9,3.36,2.99,13.47,0.09,11.94,143.55,118.31,1018.11,28.709,16.87,-67.0,0.0,5.878,344.6,5.693,1371.5,118.0,198.2,5.10,7.10,9.20,25.700,72.5,1016.20,0.00,0.0,0.00,0.0,0.0,0.00,0.00,0.0,17.00,26.425,5.65088,1.05500,5.819,36.408,1539.29,5.49430,131927.2,17.0155773,-61.8722801,12.400,80.20,30.05,25.000,-999,-999,116.2,130.8,7.80,1.30,-2.40
"2018-03-20 13:30:00",-9,3.36,2.98,13.49,0.09,11.96,143.02,116.65,1018.14,28.807,16.85,-69.0,0.0,1.661,502.4,6.895,1494.6,121.0,202.0,5.60,7.30,9.00,25.800,67.7,1016.30,0.00,0.0,0.00,0.0,0.0,0.00,0.00,0.0,12.00,26.457,5.65259,1.08100,5.853,36.395,1539.35,5.49255,132927.2,17.0155926,-61.8722801,13.200,81.00,30.06,25.000,-999,-999,117.4,132.0,8.30,8.10,-9.80
"2018-03-20 13:40:00",-9,3.36,2.99,13.51,0.10,11.93,141.89,118.12,1018.09,28.831,16.87,-69.0,0.0,2.431,296.2,6.611,1547.6,120.0,199.9,5.30,6.90,9.50,25.800,70.4,1016.50,0.00,0.0,0.00,0.0,0.0,0.00,0.00,0.0,17.00,26.477,5.65398,1.09000,5.926,36.389,1539.39,5.49176,133927.2,17.0155888,-61.8722878,13.200,79.90,30.06,25.000,-999,-999,117.9,132.5,8.40,-1.80,-3.20
"2018-03-20 13:50:00",-9,3.36,2.99,13.61,0.12,11.97,142.77,118.95,1018.03,28.874,16.86,-69.0,0.0,3.488,339.0,6.587,1658.4,122.0,201.9,5.10,7.50,9.50,25.800,67.6,1016.40,0.00,0.0,0.00,0.0,0.0,0.00,0.00,0.0,17.00,26.490,5.65523,1.10400,5.997,36.389,1539.42,5.49161,134927.2,17.0155830,-61.8722801,10.100,79.90,30.05,25.000,-999,-999,120.3,134.9,8.80,-2.00,-0.30
"2018-03-20 14:00:00",-9,3.36,2.99,13.49,0.09,11.95,144.48,118.90,1018.13,28.844,16.87,-69.0,0.0,1.679,353.8,7.124,1782.3,123.0,203.5,4.80,6.90,8.70,25.800,69.3,1016.50,0.00,0.0,0.00,0.0,0.0,0.00,0.00,0.0,17.00,26.491,5.65611,1.08300,6.006,36.394,1539.43,5.49235,135927.2,17.0155773,-61.8722801,11.500,80.50,30.06,24.900,-999,-999,115.3,129.9,7.90,2.30,-6.00
"2018-03-20 14:10:00",-9,3.36,2.99,13.48,0.11,11.95,142.63,120.07,1018.33,28.906,16.83,-69.0,0.0,1.659,311.9,7.652,1779.9,122.0,198.9,5.20,7.10,8.70,25.800,70.3,1016.60,0.00,0.0,0.00,0.0,0.0,0.00,0.00,0.0,17.00,26.528,5.65943,1.07200,6.012,36.389,1539.51,5.49162,140927.3,17.0155735,-61.8722878,12.700,76.90,30.06,24.900,-999,-999,110.6,125.2,7.50,0.30,-6.30
"2018-03-20 14:20:00",-9,3.36,2.99,13.49,0.10,11.95,142.48,116.94,1018.36,28.926,16.79,-69.0,0.0,1.567,232.2,7.325,1826.1,121.0,200.5,5.30,6.80,8.40,25.800,69.4,1016.50,0.00,0.0,0.00,0.0,0.0,0.00,0.00,0.0,17.00,26.546,5.66158,1.16100,6.050,36.390,1539.55,5.49180,141927.3,17.0155678,-61.8722801,12.300,79.50,30.06,24.900,-999,-999,116.1,130.7,7.80,-3.10,-3.80
"2018-03-20 14:30:00",-9,3.36,2.99,13.49,0.11,11.97,144.48,118.31,1018.35,28.906,16.80,-67.0,0.0,1.415,262.8,7.775,1789.2,117.0,195.6,4.60,6.40,8.30,25.800,69.3,1016.60,0.00,0.0,0.00,0.0,0.0,0.00,0.00,0.0,17.00,26.553,5.66264,1.04000,6.064,36.392,1539.57,5.49202,142927.3,17.0155697,-61.8722801,12.300,78.60,30.06,24.800,-999,-999,108.8,123.4,7.70,2.90,-4.80
